{
"type": "FeatureCollection",
"name": "nuclear_facilities",
"crs": { "type": "name", "properties": { "name": "urn:ogc:def:crs:OGC:1.3:CRS84" } },
"features": [
{ "type": "Feature", "properties": { "ID": 50, "NAME": "San Onofre 2\/3", "TYPE": "Power Plant", "REACTORS": 2, "CITY": "San Clemente", "STATE": "CA", "LATITUDE1": 33.37028, "LONGITUDE1": -117.55694 }, "geometry": { "type": "Point", "coordinates": [ -117.55694, 33.37028 ] } },
{ "type": "Feature", "properties": { "ID": 41, "NAME": "Palo Verde 1\/2\/3", "TYPE": "Power Plant", "REACTORS": 2, "CITY": "Wintersburg", "STATE": "AZ", "LATITUDE1": 33.38972, "LONGITUDE1": -112.86194 }, "geometry": { "type": "Point", "coordinates": [ -112.86194, 33.38972 ] } },
{ "type": "Feature", "properties": { "ID": 16, "NAME": "Diablo Canyon 1\/2", "TYPE": "Power Plant", "REACTORS": 2, "CITY": "Avila Beach", "STATE": "CA", "LATITUDE1": 35.21167, "LONGITUDE1": -120.85444 }, "geometry": { "type": "Point", "coordinates": [ -120.85444, 35.21167 ] } },
{ "type": "Feature", "properties": { "ID": 11, "NAME": "Columbia 2", "TYPE": "Power Plant", "REACTORS": 1, "CITY": "Pasco", "STATE": "WA", "LATITUDE1": 46.2355, "LONGITUDE1": -119.5105 }, "geometry": { "type": "Point", "coordinates": [ -119.5105, 46.2355 ] } },
{ "type": "Feature", "properties": { "ID": 12, "NAME": "Comanche Peak 1\/2", "TYPE": "Power Plant", "REACTORS": 2, "CITY": "Glen Rose", "STATE": "TX", "LATITUDE1": 32.29778, "LONGITUDE1": -97.785 }, "geometry": { "type": "Point", "coordinates": [ -97.785, 32.29778 ] } },
{ "type": "Feature", "properties": { "ID": 54, "NAME": "South Texas Project 1\/2", "TYPE": "Power Plant", "REACTORS": 2, "CITY": "Wadsworth", "STATE": "TX", "LATITUDE1": 28.795, "LONGITUDE1": -96.04806 }, "geometry": { "type": "Point", "coordinates": [ -96.04806, 28.795 ] } },
{ "type": "Feature", "properties": { "ID": 48, "NAME": "River Bend 1", "TYPE": "Power Plant", "REACTORS": 1, "CITY": "St. Francisville", "STATE": "LA", "LATITUDE1": 30.75722, "LONGITUDE1": -91.33167 }, "geometry": { "type": "Point", "coordinates": [ -91.33167, 30.75722 ] } },
{ "type": "Feature", "properties": { "ID": 63, "NAME": "Waterford 3", "TYPE": "Power Plant", "REACTORS": 1, "CITY": "Killona", "STATE": "LA", "LATITUDE1": 29.995, "LONGITUDE1": -90.47111 }, "geometry": { "type": "Point", "coordinates": [ -90.47111, 29.995 ] } },
{ "type": "Feature", "properties": { "ID": 24, "NAME": "Grand Gulf 1", "TYPE": "Power Plant", "REACTORS": 1, "CITY": "Port Gibson", "STATE": "MS", "LATITUDE1": 32.0075, "LONGITUDE1": -91.04806 }, "geometry": { "type": "Point", "coordinates": [ -91.04806, 32.0075 ] } },
{ "type": "Feature", "properties": { "ID": 29, "NAME": "Joseph M. Farley 1\/2", "TYPE": "Power Plant", "REACTORS": 2, "CITY": "Ashford", "STATE": "AL", "LATITUDE1": 31.22278, "LONGITUDE1": -85.1125 }, "geometry": { "type": "Point", "coordinates": [ -85.1125, 31.22278 ] } },
{ "type": "Feature", "properties": { "ID": 14, "NAME": "Crystal River", "TYPE": "Power Plant", "REACTORS": 1, "CITY": "Crystal River", "STATE": "FL", "LATITUDE1": 28.95722, "LONGITUDE1": -82.69889 }, "geometry": { "type": "Point", "coordinates": [ -82.69889, 28.95722 ] } },
{ "type": "Feature", "properties": { "ID": 59, "NAME": "Turkey Point 3\/4", "TYPE": "Power Plant", "REACTORS": 2, "CITY": "Miami", "STATE": "FL", "LATITUDE1": 25.435, "LONGITUDE1": -80.33139 }, "geometry": { "type": "Point", "coordinates": [ -80.33139, 25.435 ] } },
{ "type": "Feature", "properties": { "ID": 55, "NAME": "St. Lucie 1\/2", "TYPE": "Power Plant", "REACTORS": 2, "CITY": "Jensen Beach", "STATE": "FL", "LATITUDE1": 27.34861, "LONGITUDE1": -80.24639 }, "geometry": { "type": "Point", "coordinates": [ -80.24639, 27.34861 ] } },
{ "type": "Feature", "properties": { "ID": 20, "NAME": "Edwin I. Hatch 1\/2", "TYPE": "Power Plant", "REACTORS": 2, "CITY": "Baxley", "STATE": "GA", "LATITUDE1": 31.93417, "LONGITUDE1": -82.34444 }, "geometry": { "type": "Point", "coordinates": [ -82.34444, 31.93417 ] } },
{ "type": "Feature", "properties": { "ID": 62, "NAME": "Vogtle 1\/2", "TYPE": "Power Plant", "REACTORS": 2, "CITY": "Waynesboro", "STATE": "GA", "LATITUDE1": 33.14194, "LONGITUDE1": -81.76472 }, "geometry": { "type": "Point", "coordinates": [ -81.76472, 33.14194 ] } },
{ "type": "Feature", "properties": { "ID": 1, "NAME": "Arkansas 1\/2", "TYPE": "Power Plant", "REACTORS": 2, "CITY": "Russellville", "STATE": "AR", "LATITUDE1": 35.22667, "LONGITUDE1": -93.23083 }, "geometry": { "type": "Point", "coordinates": [ -93.23083, 35.22667 ] } },
{ "type": "Feature", "properties": { "ID": 65, "NAME": "Wolf Creek 1", "TYPE": "Power Plant", "REACTORS": 1, "CITY": "Burlington", "STATE": "KS", "LATITUDE1": 38.23889, "LONGITUDE1": -95.68889 }, "geometry": { "type": "Point", "coordinates": [ -95.68889, 38.23889 ] } },
{ "type": "Feature", "properties": { "ID": 13, "NAME": "Cooper Station", "TYPE": "Power Plant", "REACTORS": 1, "CITY": "Brownville", "STATE": "NE", "LATITUDE1": 40.36194, "LONGITUDE1": -95.64111 }, "geometry": { "type": "Point", "coordinates": [ -95.64111, 40.36194 ] } },
{ "type": "Feature", "properties": { "ID": 22, "NAME": "Fort Calhoun", "TYPE": "Power Plant", "REACTORS": 1, "CITY": "Fort Calhoun", "STATE": "NE", "LATITUDE1": 41.52083, "LONGITUDE1": -96.07667 }, "geometry": { "type": "Point", "coordinates": [ -96.07667, 41.52083 ] } },
{ "type": "Feature", "properties": { "ID": 35, "NAME": "Monticello", "TYPE": "Power Plant", "REACTORS": 1, "CITY": "Monticello", "STATE": "MN", "LATITUDE1": 45.33333, "LONGITUDE1": -93.84833 }, "geometry": { "type": "Point", "coordinates": [ -93.84833, 45.33333 ] } },
{ "type": "Feature", "properties": { "ID": 46, "NAME": "Prairie Island Station 1\/2", "TYPE": "Power Plant", "REACTORS": 2, "CITY": "Welch", "STATE": "MN", "LATITUDE1": 44.61944, "LONGITUDE1": -92.63306 }, "geometry": { "type": "Point", "coordinates": [ -92.63306, 44.61944 ] } },
{ "type": "Feature", "properties": { "ID": 7, "NAME": "Callaway", "TYPE": "Power Plant", "REACTORS": 1, "CITY": "Fulton", "STATE": "MO", "LATITUDE1": 38.75833, "LONGITUDE1": -91.78167 }, "geometry": { "type": "Point", "coordinates": [ -91.78167, 38.75833 ] } },
{ "type": "Feature", "properties": { "ID": 47, "NAME": "Quad Cities 1\/2", "TYPE": "Power Plant", "REACTORS": 2, "CITY": "Cordova", "STATE": "IL", "LATITUDE1": 41.72611, "LONGITUDE1": -90.31 }, "geometry": { "type": "Point", "coordinates": [ -90.31, 41.72611 ] } },
{ "type": "Feature", "properties": { "ID": 10, "NAME": "Clinton", "TYPE": "Power Plant", "REACTORS": 1, "CITY": "Clinton", "STATE": "IL", "LATITUDE1": 40.17194, "LONGITUDE1": -88.83417 }, "geometry": { "type": "Point", "coordinates": [ -88.83417, 40.17194 ] } },
{ "type": "Feature", "properties": { "ID": 31, "NAME": "LaSalle 1\/2", "TYPE": "Power Plant", "REACTORS": 2, "CITY": "Marseilles", "STATE": "IL", "LATITUDE1": 41.24389, "LONGITUDE1": -88.67083 }, "geometry": { "type": "Point", "coordinates": [ -88.67083, 41.24389 ] } },
{ "type": "Feature", "properties": { "ID": 3, "NAME": "Braidwood 1\/2", "TYPE": "Power Plant", "REACTORS": 2, "CITY": "Braceville", "STATE": "IL", "LATITUDE1": 41.24361, "LONGITUDE1": -88.22889 }, "geometry": { "type": "Point", "coordinates": [ -88.22889, 41.24361 ] } },
{ "type": "Feature", "properties": { "ID": 18, "NAME": "Dresden 2\/3", "TYPE": "Power Plant", "REACTORS": 2, "CITY": "Morris", "STATE": "IL", "LATITUDE1": 41.38972, "LONGITUDE1": -88.27111 }, "geometry": { "type": "Point", "coordinates": [ -88.27111, 41.38972 ] } },
{ "type": "Feature", "properties": { "ID": 4, "NAME": "Browns Ferry 1\/2\/3", "TYPE": "Power Plant", "REACTORS": 3, "CITY": "Decatur", "STATE": "AL", "LATITUDE1": 34.70417, "LONGITUDE1": -87.11861 }, "geometry": { "type": "Point", "coordinates": [ -87.11861, 34.70417 ] } },
{ "type": "Feature", "properties": { "ID": 52, "NAME": "Sequoyah 1\/2", "TYPE": "Power Plant", "REACTORS": 2, "CITY": "Soddy-Daisy", "STATE": "TN", "LATITUDE1": 35.22333, "LONGITUDE1": -85.08778 }, "geometry": { "type": "Point", "coordinates": [ -85.08778, 35.22333 ] } },
{ "type": "Feature", "properties": { "ID": 64, "NAME": "Watts Bar 1", "TYPE": "Power Plant", "REACTORS": 1, "CITY": "Spring City", "STATE": "TN", "LATITUDE1": 35.60278, "LONGITUDE1": -84.79028 }, "geometry": { "type": "Point", "coordinates": [ -84.79028, 35.60278 ] } },
{ "type": "Feature", "properties": { "ID": 19, "NAME": "Duane Arnold", "TYPE": "Power Plant", "REACTORS": 1, "CITY": "Palo", "STATE": "IA", "LATITUDE1": 42.10056, "LONGITUDE1": -91.77722 }, "geometry": { "type": "Point", "coordinates": [ -91.77722, 42.10056 ] } },
{ "type": "Feature", "properties": { "ID": 6, "NAME": "Byron 1\/2", "TYPE": "Power Plant", "REACTORS": 2, "CITY": "Byron", "STATE": "IL", "LATITUDE1": 42.075, "LONGITUDE1": -89.28194 }, "geometry": { "type": "Point", "coordinates": [ -89.28194, 42.075 ] } },
{ "type": "Feature", "properties": { "ID": 17, "NAME": "Donald C. Cook 1\/2", "TYPE": "Power Plant", "REACTORS": 2, "CITY": "Bridgman", "STATE": "MI", "LATITUDE1": 41.97611, "LONGITUDE1": -86.56639 }, "geometry": { "type": "Point", "coordinates": [ -86.56639, 41.97611 ] } },
{ "type": "Feature", "properties": { "ID": 40, "NAME": "Palisades", "TYPE": "Power Plant", "REACTORS": 1, "CITY": "Covert", "STATE": "MI", "LATITUDE1": 42.32222, "LONGITUDE1": -86.31528 }, "geometry": { "type": "Point", "coordinates": [ -86.31528, 42.32222 ] } },
{ "type": "Feature", "properties": { "ID": 45, "NAME": "Point Beach 1\/2", "TYPE": "Power Plant", "REACTORS": 2, "CITY": "Two Rivers", "STATE": "WI", "LATITUDE1": 44.28083, "LONGITUDE1": -87.53611 }, "geometry": { "type": "Point", "coordinates": [ -87.53611, 44.28083 ] } },
{ "type": "Feature", "properties": { "ID": 30, "NAME": "Kewaunee", "TYPE": "Power Plant", "REACTORS": 1, "CITY": "Kewaunee", "STATE": "WI", "LATITUDE1": 44.34306, "LONGITUDE1": -87.53611 }, "geometry": { "type": "Point", "coordinates": [ -87.53611, 44.34306 ] } },
{ "type": "Feature", "properties": { "ID": 38, "NAME": "Oconee 1\/3", "TYPE": "Power Plant", "REACTORS": 2, "CITY": "Seneca", "STATE": "SC", "LATITUDE1": 34.79167, "LONGITUDE1": -82.89861 }, "geometry": { "type": "Point", "coordinates": [ -82.89861, 34.79167 ] } },
{ "type": "Feature", "properties": { "ID": 60, "NAME": "V. C. Summer", "TYPE": "Power Plant", "REACTORS": 1, "CITY": "Jenkinsville", "STATE": "SC", "LATITUDE1": 34.29583, "LONGITUDE1": -81.32028 }, "geometry": { "type": "Point", "coordinates": [ -81.32028, 34.29583 ] } },
{ "type": "Feature", "properties": { "ID": 9, "NAME": "Catawba 1\/2", "TYPE": "Power Plant", "REACTORS": 2, "CITY": "York", "STATE": "SC", "LATITUDE1": 35.05139, "LONGITUDE1": -81.06944 }, "geometry": { "type": "Point", "coordinates": [ -81.06944, 35.05139 ] } },
{ "type": "Feature", "properties": { "ID": 33, "NAME": "McGuire 1\/2", "TYPE": "Power Plant", "REACTORS": 2, "CITY": "Cornelius", "STATE": "NC", "LATITUDE1": 35.43222, "LONGITUDE1": -80.94833 }, "geometry": { "type": "Point", "coordinates": [ -80.94833, 35.43222 ] } },
{ "type": "Feature", "properties": { "ID": 25, "NAME": "H. B. Robinson", "TYPE": "Power Plant", "REACTORS": 1, "CITY": "Hartsville", "STATE": "SC", "LATITUDE1": 34.40528, "LONGITUDE1": -80.15861 }, "geometry": { "type": "Point", "coordinates": [ -80.15861, 34.40528 ] } },
{ "type": "Feature", "properties": { "ID": 15, "NAME": "Davis-Besse", "TYPE": "Power Plant", "REACTORS": 1, "CITY": "Oak Harbor", "STATE": "OH", "LATITUDE1": 41.59722, "LONGITUDE1": -83.0864 }, "geometry": { "type": "Point", "coordinates": [ -83.0864, 41.59722 ] } },
{ "type": "Feature", "properties": { "ID": 43, "NAME": "Perry 1", "TYPE": "Power Plant", "REACTORS": 1, "CITY": "Perry", "STATE": "OH", "LATITUDE1": 41.80111, "LONGITUDE1": -81.14333 }, "geometry": { "type": "Point", "coordinates": [ -81.14333, 41.80111 ] } },
{ "type": "Feature", "properties": { "ID": 2, "NAME": "Beaver Valley 1\/2", "TYPE": "Power Plant", "REACTORS": 2, "CITY": "Shippingport", "STATE": "PA", "LATITUDE1": 40.62194, "LONGITUDE1": -80.43389 }, "geometry": { "type": "Point", "coordinates": [ -80.43389, 40.62194 ] } },
{ "type": "Feature", "properties": { "ID": 53, "NAME": "Shearon Harris", "TYPE": "Power Plant", "REACTORS": 1, "CITY": "Raleigh", "STATE": "NC", "LATITUDE1": 35.63333, "LONGITUDE1": -78.95611 }, "geometry": { "type": "Point", "coordinates": [ -78.95611, 35.63333 ] } },
{ "type": "Feature", "properties": { "ID": 5, "NAME": "Brunswick 1\/2", "TYPE": "Power Plant", "REACTORS": 2, "CITY": "Southport", "STATE": "NC", "LATITUDE1": 33.95833, "LONGITUDE1": -78.01056 }, "geometry": { "type": "Point", "coordinates": [ -78.01056, 33.95833 ] } },
{ "type": "Feature", "properties": { "ID": 56, "NAME": "Surry 1\/2", "TYPE": "Power Plant", "REACTORS": 2, "CITY": "Surry", "STATE": "VA", "LATITUDE1": 37.16556, "LONGITUDE1": -76.69833 }, "geometry": { "type": "Point", "coordinates": [ -76.69833, 37.16556 ] } },
{ "type": "Feature", "properties": { "ID": 37, "NAME": "North Anna 1\/2", "TYPE": "Power Plant", "REACTORS": 2, "CITY": "Mineral", "STATE": "VA", "LATITUDE1": 38.06083, "LONGITUDE1": -77.79056 }, "geometry": { "type": "Point", "coordinates": [ -77.79056, 38.06083 ] } },
{ "type": "Feature", "properties": { "ID": 8, "NAME": "Calvert Cliffs l\/2", "TYPE": "Power Plant", "REACTORS": 2, "CITY": "Lusby", "STATE": "MD", "LATITUDE1": 38.43472, "LONGITUDE1": -76.44194 }, "geometry": { "type": "Point", "coordinates": [ -76.44194, 38.43472 ] } },
{ "type": "Feature", "properties": { "ID": 42, "NAME": "Peach Bottom 2\/3", "TYPE": "Power Plant", "REACTORS": 2, "CITY": "Philadelphia", "STATE": "PA", "LATITUDE1": 39.75889, "LONGITUDE1": -76.26917 }, "geometry": { "type": "Point", "coordinates": [ -76.26917, 39.75889 ] } },
{ "type": "Feature", "properties": { "ID": 49, "NAME": "Salem 1\/2", "TYPE": "Power Plant", "REACTORS": 2, "CITY": "Hancocks Bridge", "STATE": "NJ", "LATITUDE1": 39.46278, "LONGITUDE1": -75.53583 }, "geometry": { "type": "Point", "coordinates": [ -75.53583, 39.46278 ] } },
{ "type": "Feature", "properties": { "ID": 26, "NAME": "Hope Creek", "TYPE": "Power Plant", "REACTORS": 1, "CITY": "Hancocks Bridge", "STATE": "NJ", "LATITUDE1": 39.46778, "LONGITUDE1": -75.53806 }, "geometry": { "type": "Point", "coordinates": [ -75.53806, 39.46778 ] } },
{ "type": "Feature", "properties": { "ID": 58, "NAME": "Three Mile Island 1", "TYPE": "Power Plant", "REACTORS": 1, "CITY": "Middletown", "STATE": "PA", "LATITUDE1": 40.15306, "LONGITUDE1": -76.725 }, "geometry": { "type": "Point", "coordinates": [ -76.725, 40.15306 ] } },
{ "type": "Feature", "properties": { "ID": 32, "NAME": "Limerick 1\/2", "TYPE": "Power Plant", "REACTORS": 2, "CITY": "Philadelphia", "STATE": "PA", "LATITUDE1": 40.22, "LONGITUDE1": -75.59 }, "geometry": { "type": "Point", "coordinates": [ -75.59, 40.22 ] } },
{ "type": "Feature", "properties": { "ID": 57, "NAME": "Susquehanna 1\/2", "TYPE": "Power Plant", "REACTORS": 2, "CITY": "Allentown", "STATE": "PA", "LATITUDE1": 41.09167, "LONGITUDE1": -76.14861 }, "geometry": { "type": "Point", "coordinates": [ -76.14861, 41.09167 ] } },
{ "type": "Feature", "properties": { "ID": 21, "NAME": "Fermi 2", "TYPE": "Power Plant", "REACTORS": 1, "CITY": "Newport", "STATE": "MI", "LATITUDE1": 41.96333, "LONGITUDE1": -83.25861 }, "geometry": { "type": "Point", "coordinates": [ -83.25861, 41.96333 ] } },
{ "type": "Feature", "properties": { "ID": 23, "NAME": "Ginna", "TYPE": "Power Plant", "REACTORS": 1, "CITY": "Ontario", "STATE": "NY", "LATITUDE1": 43.29167, "LONGITUDE1": -77.30889 }, "geometry": { "type": "Point", "coordinates": [ -77.30889, 43.29167 ] } },
{ "type": "Feature", "properties": { "ID": 36, "NAME": "Nine Mile Point 1\/2", "TYPE": "Power Plant", "REACTORS": 2, "CITY": "Lycoming", "STATE": "NY", "LATITUDE1": 43.52222, "LONGITUDE1": -76.41 }, "geometry": { "type": "Point", "coordinates": [ -76.41, 43.52222 ] } },
{ "type": "Feature", "properties": { "ID": 28, "NAME": "James A. Fitzpatrick", "TYPE": "Power Plant", "REACTORS": 1, "CITY": "Lycoming", "STATE": "NY", "LATITUDE1": 43.52389, "LONGITUDE1": -76.39833 }, "geometry": { "type": "Point", "coordinates": [ -76.39833, 43.52389 ] } },
{ "type": "Feature", "properties": { "ID": 39, "NAME": "Oyster Creek", "TYPE": "Power Plant", "REACTORS": 1, "CITY": "Forked River", "STATE": "NJ", "LATITUDE1": 39.81417, "LONGITUDE1": -74.20639 }, "geometry": { "type": "Point", "coordinates": [ -74.20639, 39.81417 ] } },
{ "type": "Feature", "properties": { "ID": 27, "NAME": "Indian Point 1\/2\/3", "TYPE": "Power Plant", "REACTORS": 3, "CITY": "Buchanan", "STATE": "NY", "LATITUDE1": 41.27139, "LONGITUDE1": -73.9525 }, "geometry": { "type": "Point", "coordinates": [ -73.9525, 41.27139 ] } },
{ "type": "Feature", "properties": { "ID": 34, "NAME": "Millstone 1\/2\/3", "TYPE": "Power Plant", "REACTORS": 3, "CITY": "Waterford", "STATE": "CT", "LATITUDE1": 41.30861, "LONGITUDE1": -72.16806 }, "geometry": { "type": "Point", "coordinates": [ -72.16806, 41.30861 ] } },
{ "type": "Feature", "properties": { "ID": 61, "NAME": "Vermont Yankee 1", "TYPE": "Power Plant", "REACTORS": 1, "CITY": "Vernon", "STATE": "VT", "LATITUDE1": 42.78028, "LONGITUDE1": -72.51583 }, "geometry": { "type": "Point", "coordinates": [ -72.51583, 42.78028 ] } },
{ "type": "Feature", "properties": { "ID": 51, "NAME": "Seabrook", "TYPE": "Power Plant", "REACTORS": 1, "CITY": "Seabrook", "STATE": "NH", "LATITUDE1": 42.89806, "LONGITUDE1": -70.85139 }, "geometry": { "type": "Point", "coordinates": [ -70.85139, 42.89806 ] } },
{ "type": "Feature", "properties": { "ID": 44, "NAME": "Pilgrim 1", "TYPE": "Power Plant", "REACTORS": 1, "CITY": "Plymouth", "STATE": "MA", "LATITUDE1": 41.94444, "LONGITUDE1": -70.57944 }, "geometry": { "type": "Point", "coordinates": [ -70.57944, 41.94444 ] } }
]
}
